stop_id,stop_code,stop_name,stop_desc,stop_lat,stop_lon,zone_id,stop_url,location_type,parent_station,stop_timezone,wheelchair_boarding
de:09362:15012:0:1,,Josef-Adler-Straße,,49.02394213429318,12.07201438520132,,,0,,,0
de:09362:15012:0:2,,Josef-Adler-Straße,,49.0241491,12.0721672,,,0,,,0
de:09362:11041:0:1,,Alter Kornmarkt,,49.01855168938127,12.10063516745684,,,0,,,0
de:09362:11041:0:2,,Alter Kornmarkt,,49.01849038987445,12.10058688009004,,,0,,,0
de:09362:14057:0:0,,Leoprechting Am Bach,,48.9831522,12.0885836,,,0,,,0
de:09362:12051:0:2,,Amberger Straße (A),,49.0399436,12.1018702,,,0,,,0
de:09362:12051:0:3,,Amberger Straße (B),,49.0395569,12.1017188,,,0,,,0
de:09362:12051:0:4,,Amberger Straße (D),,49.039008,12.1023741,,,0,,,0
de:09362:12051:0:5,,Amberger Straße (C),,49.0389983,12.1030308,,,0,,,0
de:09362:15001:0:2,,Albertus-Magn-Gymn.,,49.0239211,12.0774447,,,0,,,0
de:09362:15001:0:3,,Albertus-Magn-Gymn.,,49.0240483,12.0754211,,,0,,,0
de:09362:15003:0:0,,Annahofstraße,,49.0181472,12.0456494,,,0,,,0
de:09362:14073:0:2,,Antoniuskirche,,49.0094361,12.1091205,,,0,,,0
de:09362:14073:0:3,,Antoniuskirche,,49.008653,12.1098977,,,0,,,0
de:09362:14073:0:4,,Antoniuskirche,,49.00911959823549,12.11076034488487,,,0,,,0
de:09362:11010:1:1,,Arnulfsplatz (Steig 1),,49.0196588,12.0895511,,,0,,,0
de:09362:11010:2:2,,Arnulfsplatz (Steig 3),,49.0198211,12.0893736,,,0,,,0
de:09362:11010:2:3,,Arnulfsplatz (Steig 4),,49.0197491,12.0893736,,,0,,,0
de:09362:11010:2:4,,Arnulfsplatz (Steig 2),,49.019848,12.089278,,,0,,,0
de:09362:11010:1:5,,Arnulfsplatz (Ärztehaus),,49.01982492509195,12.08993095991182,,,0,,,0
de:09362:11001:0:0,,Altes Rathaus,,49.0202477,12.0954586,,,0,,,0
de:09362:12003:0:1,,Ardennenstraße,,49.04703658230048,12.12515821728265,,,0,,,0
de:09362:12003:0:2,,Ardennenstraße,,49.0473016,12.1261936,,,0,,,0
de:09362:10296:0:0,,Donau-Arena,,49.02624936641617,12.13184487499234,,,0,,,0
de:09362:12004:0:0,,Argonnenstraße,,49.043825,12.1233805,,,0,,,0
de:09362:592:0:2,,Asamstraße,,49.0091277,12.0795675,,,0,,,0
de:09362:592:0:3,,Asamstraße,,49.0100166,12.0812502,,,0,,,0
de:09362:16015:0:0,,M.-Aschenauer Straße,,49.0303066,12.0753486,,,0,,,0
de:09362:14001:0:1,,Alfons-Auer-Straße,,49.0059747,12.1084841,,,0,,,0
de:09362:14001:0:2,,Alfons-Auer-Straße,,49.0059572,12.1081013,,,0,,,0
de:09362:14001:0:3,,Alfons-Auer-Straße,,49.0058836,12.1097686,,,0,,,0
de:09362:14001:0:4,,Alfons-Auer-Straße,,49.006253,12.1091408,,,0,,,0
de:09362:14006:0:1,,Augsburger Straße,,49.0057419,12.08615,,,0,,,0
de:09362:14006:0:2,,Augsburger Straße,,49.0058761,12.0870661,,,0,,,0
de:09362:12005:0:0,,Aussiger Straße,,49.04078472184798,12.12376255776165,,,0,,,0
de:09362:12005:0:1,,Aussiger Straße,,49.04090272805065,12.12381306945311,,,0,,,0
de:09362:12005:0:2,,Aussiger Straße,,49.04071583036877,12.1250111610331,,,0,,,0
de:09362:12005:0:3,,Aussiger Straße,,49.04091499300038,12.12514756749804,,,0,,,0
de:09362:14007:0:3,,Bajuwarenstraße,,49.0008027,12.1276336,,,0,,,0
de:09362:14007:0:4,,Bajuwarenstraße,,49.0018922,12.1262697,,,0,,,0
de:09362:14007:0:5,,Bajuwarenstraße,,49.0008405,12.1259936,,,0,,,0
de:09362:12071:0:1,,Baseball-Stadion,,49.0271083,12.1395016,,,0,,,0
de:09362:12071:0:2,,Baseball-Stadion,,49.027243,12.1396388,,,0,,,0
de:09362:14094:0:1,,Beethovenstraße,,49.0077488,12.1055902,,,0,,,0
de:09362:14094:0:2,,Beethovenstraße,,49.0078297,12.1057955,,,0,,,0
de:09362:14008:0:0,,Benzstraße,,48.997978,12.1287741,,,0,,,0
de:09362:14008:0:1,,Benzstraße,,48.99899529,12.13107666,,,0,,,0
de:09362:14008:0:2,,Benzstraße,,48.9982561,12.1292805,,,0,,,0
de:09362:14008:0:3,,Benzstraße,,48.9994602,12.1299533,,,0,,,0
de:09362:12012:0:1,,Berchinger Straße,,49.0483526620224,12.11901708689955,,,0,,,0
de:09362:12012:0:2,,Berchinger Straße,,49.04841159524545,12.11898097643154,,,0,,,0
de:09362:12006:0:0,,Berliner Straße,,49.0471305,12.1182455,,,0,,,0
de:09362:12006:0:1,,Berliner Straße,,49.04712198551812,12.11829167842469,,,0,,,0
de:09362:588:0:1,,Am Biopark,,48.9941186,12.1038122,,,0,,,0
de:09362:588:0:2,,Am Biopark,,48.99419990961926,12.10381213108947,,,0,,,0
de:09362:14074:0:1,,Bischof-Konrad-Str.,,49.0069311,12.094968,,,0,,,0
de:09362:14074:0:2,,Bischof-Konrad-Str.,,49.0070658,12.0948316,,,0,,,0
de:09362:13002:0:0,,BMW Tor 2,,48.98138593225791,12.1712147033521,,,0,,,0
de:09362:13001:0:1,,BMW Ausbildungszentrum,,48.9824177,12.1604152,,,0,,,0
de:09362:13001:0:2,,BMW Ausbildungszentrum,,48.9824005,12.1600327,,,0,,,0
de:09362:15004:0:2,,Boessnerstraße,,49.0238197,12.0670255,,,0,,,0
de:09362:15004:0:3,,Boessnerstraße (Li.6 Ri. WERN),,49.0239197,12.0650158,,,0,,,0
de:09362:15004:0:5,,Boessnerstraße,,49.02455200128231,12.06480101133073,,,0,,,0
de:09362:15004:0:6,,Boessnerstraße,,49.02443824846569,12.06473637802031,,,0,,,0
de:09362:15006:0:1,,St. Bonifaz,,49.01803419403026,12.04869934157939,,,0,,,0
de:09362:11020:0:1,,Bismarckplatz,,49.0181216,12.0891655,,,0,,,0
de:09362:11020:0:2,,Bismarckplatz,,49.0184275,12.0891661,,,0,,,0
de:09362:11020:0:4,,Bismarckplatz,,49.0186883285267,12.08957791208053,,,0,,,0
de:09362:718:0:0,,Roter-Brach-Weg,,49.0181711,12.0529227,,,0,,,0
de:09362:718:0:1,,Roter-Brach-Weg,,49.0181983,12.0523758,,,0,,,0
de:09362:718:0:3,,Roter-Brach-Weg,,49.01807591784848,12.05221134900829,,,0,,,0
de:09362:14012:0:2,,Brahmsstraße,,49.0038075,12.1086433,,,0,,,0
de:09362:14012:0:3,,Brahmsstraße,,49.00279202972276,12.10916054774653,,,0,,,0
de:09362:12007:0:1,,Brandlberg,,49.0381016,12.1352927,,,0,,,0
de:09362:12007:0:2,,Brandlberg,,49.0380025,12.1355797,,,0,,,0
de:09362:12018:0:1,,Brombeerweg,,49.04352444871552,12.16084266678092,,,0,,,0
de:09362:12018:0:2,,Brombeerweg,,49.04344967742571,12.160867801331,,,0,,,0
de:09362:13003:0:1,,Bukarester Straße,,49.0138997,12.1462722,,,0,,,0
de:09362:13003:0:2,,Bukarester Straße,,49.0134586,12.1468041,,,0,,,0
de:09362:15020:0:1,,Michael-Burgau-Straße,,49.01516212,12.06301662,,,0,,,0
de:09362:15020:0:0,,Michael-Burgau-Straße,,49.0148222,12.0609163,,,0,,,0
de:09362:14024:0:1,,Garbenstraße,,48.9929705,12.1356616,,,0,,,0
de:09362:14024:0:2,,Garbenstraße,,48.9925038,12.1346766,,,0,,,0
de:09362:10339:30:3,,Burgweinting Bahnhof Gleis 1,,48.98971038935395,12.14683026426096,,,0,,,0
de:09362:10339:31:1,,Burgweinting Bahnhof Gleis 2,,48.99055167116438,12.1470653553153,,,0,,,0
de:09362:10339:30:2,,Burgweinting Bahnhof Gleis 1,,48.98969471,12.14677879,,,0,,,0
de:09362:10339:31:4,,Burgweinting Bahnhof Gleis 2,,48.99051416,12.146843,,,0,,,0
de:09362:14102:0:1,,Hermann-Höcherl-Str.,,48.9852786,12.1459833,,,0,,,0
de:09362:14102:0:2,,Hermann-Höcherl-Str.,,48.9845066,12.1447925,,,0,,,0
de:09362:14102:0:4,,Hermann-Höcherl-Str.,,48.9852083,12.1446305,,,0,,,0
de:09362:14013:0:2,,Burgweinting Kirche,,48.99241,12.1380377,,,0,,,0
de:09362:14013:0:3,,Burgweinting Kirche,,48.9925002,12.1379013,,,0,,,0
de:09362:14015:0:2,,Kurzer Weg,,48.986663,12.1390602,,,0,,,0
de:09362:14015:0:3,,Kurzer Weg,,48.9866002,12.1388141,,,0,,,0
de:09362:14014:0:1,,Langer Weg,,48.9833569,12.1365508,,,0,,,0
de:09362:14014:0:2,,Langer Weg,,48.9837355,12.1356775,,,0,,,0
de:09362:14034:0:1,,Minervastraße,,48.9907153,12.13090065,,,0,,,0
de:09362:14034:0:2,,Minervastraße,,48.9909258,12.1308327,,,0,,,0
de:09362:14048:0:1,,Römerstraße,,48.9901488,12.1260894,,,0,,,0
de:09362:14048:0:2,,Römerstraße,,48.98981228815855,12.12574093361254,,,0,,,0
de:09362:14048:0:3,,Römerstraße,,48.9897808,12.1255147,,,0,,,0
de:09362:10340:0:1,,Rudolf-Schlichtinger-Str.,,48.98794406345945,12.14625357623372,,,0,,,0
de:09362:10340:0:2,,Rudolf-Schlichtinger-Str.,,48.9881466,12.1463741,,,0,,,0
de:09362:14033:0:0,,Sophie-Scholl-Straße,,48.9836641,12.1427541,,,0,,,0
de:09362:14033:0:1,,Sophie-Scholl-Straße,,48.9834308,12.1422755,,,0,,,0
de:09362:14016:0:2,,Friedr.-Viehbacher-Allee,,48.98836511698543,12.14111702274842,,,0,,,0
de:09362:14016:0:3,,Friedr.-Viehbacher-Allee,,48.98835191,12.1410728,,,0,,,0
de:09362:15039:0:1,,Clermont-Ferrand-Allee,,49.02330133114176,12.05984143474926,,,0,,,0
de:09362:15039:0:2,,Clermont-Ferrand-Allee,,49.02335489028334,12.05967793379754,,,0,,,0
de:09362:616:0:3,,Coburger Straße,,49.05648278582209,12.13090597123959,,,0,,,0
de:09362:616:0:4,,Coburger Straße,,49.0565011788572,12.13084283175081,,,0,,,0
de:09362:14081:0:1,,Jahnstadion Regensburg / P2,,48.9901088,12.1031888,,,0,,,0
de:09362:14079:0:1,,Jahnstadion Regensburg,,48.9913586,12.1128383,,,0,,,0
de:09362:14079:0:2,,Jahnstadion Regensburg,,48.9911426355702,12.11279011994271,,,0,,,0
de:09362:14079:0:6,,Jahnstadion Regensburg,,48.9908197,12.1121675,,,0,,,0
de:09362:14079:0:7,,Jahnstadion Regensburg,,48.9907577,12.1111836,,,0,,,0
de:09362:14054:0:2,,Cranachweg,,49.0071058,12.062998,,,0,,,0
de:09362:14054:0:3,,Cranachweg,,49.0071597,12.0631622,,,0,,,0
de:09362:14108:2,,Daimlerstraße,,49.00784168340863,12.12329865125305,,,0,,,0
de:09362:14108:1,,Daimlerstraße,,49.00788577808072,12.12332990434765,,,0,,,0
de:09362:12009:0:1,,Danziger Freiheit,,49.0413175,12.1302544,,,0,,,0
de:09362:12009:0:2,,Danziger Freiheit,,49.04147878854488,12.13206992692141,,,0,,,0
de:09362:14002:0:0,,Dechbetten,,49.010795,12.058615,,,0,,,0
de:09362:14002:0:5,,Dechbetten,,49.01097361984245,12.05948246669597,,,0,,,0
de:09362:14004:0:1,,Dechbetten-TELIS FINANZ,,49.00972544986669,12.05866959552278,,,0,,,0
de:09362:14004:0:2,,Dechbetten-TELIS FINANZ,,49.0093475,12.0578613,,,0,,,0
de:09362:15005:0:1,,Deiningerstraße,,49.01480350596791,12.04705229174247,,,0,,,0
de:09362:15005:0:0,,Deiningerstraße,,49.01632574728735,12.04771568314305,,,0,,,0
de:09362:12:0:1,,Dechbettener Straße,,49.01353146329101,12.07713360826152,,,0,,,0
de:09362:12:0:2,,Dechbettener Straße,,49.0134455,12.0771547,,,0,,,0
de:09362:11040:0:3,,Domplatz,,49.01998720416626,12.09729567743141,,,0,,,0
de:09362:11040:0:4,,Domplatz,,49.01936345951862,12.09739544646248,,,0,,,0
de:09362:12015:0:2,,Donaustaufer Straße,,49.0301397,12.1141983,,,0,,,0
de:09362:12015:0:3,,Donaustaufer Straße,,49.0288541,12.1139491,,,0,,,0
de:09362:12015:0:4,,Donaustaufer Straße,,49.0292486,12.1151944,,,0,,,0
de:09362:15013:0:1,,Dornierstraße,,49.0215111,12.0630302,,,0,,,0
de:09362:15013:0:2,,Dornierstraße,,49.021448,12.0630847,,,0,,,0
de:09362:16028:0:1,,Dornfelder Weg,,49.0321455,12.0511463,,,0,,,0
de:09362:16028:0:2,,Dornfelder Weg,,49.0320555,12.0511188,,,0,,,0
de:09362:11030:1:1,,Dachauplatz (A-1),,49.01674286910191,12.10185940267696,,,0,,,0
de:09362:11030:2:3,,Dachauplatz (C-3),,49.0178055,12.1017972,,,0,,,0
de:09362:11030:3:4,,Dachauplatz (D-4),,49.0175988,12.1016191,,,0,,,0
de:09362:11030:4:5,,Dachauplatz (E-5),,49.0167536,12.1016175,,,0,,,0
de:09362:11030:4:6,,Dachauplatz (F-6),,49.0166544,12.1016991,,,0,,,0
de:09362:16036:0:0,,Dreifaltigkeitsberg,,49.0318855,12.0928552,,,0,,,0
de:09362:16036:0:4,,Dreifaltigkeitsberg,,49.0333069,12.091805,,,0,,,0
de:09362:16036:0:5,,Dreifaltigkeitsberg,,49.0333608,12.0918186,,,0,,,0
de:09362:14019:0:1,,Droste-Hülshoff-Weg,,48.9862638,12.1343183,,,0,,,0
de:09362:14019:0:2,,Droste-Hülshoff-Weg,,48.986228,12.1343727,,,0,,,0
de:09375:18008:0:1,,Donaustauf Bayerwaldstraße,,49.0288477,12.2032427,,,0,,,0
de:09375:18008:0:2,,Donaustauf Bayerwaldstraße,,49.0287322,12.2024355,,,0,,,0
de:09375:18010:0:2,,Donaustauf Kriegerdenkmal,,49.0297694,12.2108222,,,0,,,0
de:09375:18010:0:3,,Donaustauf Kriegerdenkmal,,49.0295811,12.2104386,,,0,,,0
de:09375:868:0:1,,Donaustauf Reifldinger Str.,,49.0314208,12.2173386,,,0,,,0
de:09362:15007:0:1,,Dürerstraße,,49.0035911,12.0607522,,,0,,,0
de:09362:15007:0:2,,Dürerstraße,,49.0035037330105,12.06068186660142,,,0,,,0
de:09362:11162:0:0,,Dultplatz,,49.02606296068036,12.09013550914544,,,0,,,0
de:09362:14028:0:0,,Friedrich-Ebert-Str.,,49.00551541812666,12.06986971163598,,,0,,,0
de:09362:14104:0:1,,Ehrenfelsstraße,,49.01083046534254,12.11824893619643,,,0,,,0
de:09362:14104:0:2,,Ehrenfelsstraße,,49.01079610908313,12.11735234214106,,,0,,,0
de:09362:11050:0:1,,Eiserne Brücke,,49.02171538727914,12.10281763371358,,,0,,,0
de:09362:11050:0:2,,Eiserne Brücke,,49.0217519,12.1027897,,,0,,,0
de:09362:15038:0:1,,Elisabethstraße,,49.02655692396954,12.07008363109112,,,0,,,0
de:09362:1925:0:1,,Erboweg,,49.01190586054582,12.054816398313,,,0,,,0
de:09362:14009:0:1,,Ludwig-Erhard-Str.,,49.0007516,12.0730897,,,0,,,0
de:09362:14009:0:2,,Ludwig-Erhard-Str.,,49.0005713,12.07339,,,0,,,0
de:09362:14032:0:0,,Erminoldweg,,49.01083718751595,12.04454860304192,,,0,,,0
de:09362:11151:0:0,,Fritz-Fend-Straße,,49.01264981192497,12.09350039562281,,,0,,,0
de:09362:11151:0:1,,Fritz-Fend-Straße,,49.01241095974337,12.09411214940155,,,0,,,0
de:09362:11060:0:1,,Fischmarkt,,49.0210394,12.0949405,,,0,,,0
de:09362:11060:0:2,,Fischmarkt,,49.0210847,12.0946672,,,0,,,0
de:09362:12052:0:1,,Fluderstraße,,49.0372455,12.1025075,,,0,,,0
de:09362:12052:0:2,,Fluderstraße,,49.0364811,12.1024922,,,0,,,0
de:09362:14093:0:1,,FOS/BOS,,48.9984138,12.106978,,,0,,,0
de:09362:14093:0:2,,FOS/BOS,,48.99833343120077,12.10706513377772,,,0,,,0
de:09362:13009:0:2,,Frachtpostzentrum,,48.9996161,12.1496605,,,0,,,0
de:09362:13009:0:3,,Frachtpostzentrum,,48.9994905,12.1493733,,,0,,,0
de:09362:14045:0:1,,Kaiser-Friedrich-Allee,,49.00149,12.0711227,,,0,,,0
de:09362:14045:0:2,,Kaiser-Friedrich-Allee,,49.0011572,12.0715322,,,0,,,0
de:09362:14066:0:2,,Oberer kath. Friedhof,,49.00623793025211,12.09294723619162,,,0,,,0
de:09362:14066:0:3,,Oberer kath. Friedhof,,49.0076791,12.0928511,,,0,,,0
de:09362:14066:0:4,,Oberer kath. Friedhof,,49.0068522,12.0921933,,,0,,,0
de:09362:14098:0:1,,Friesenstraße,,49.00113028,12.11738374,,,0,,,0
de:09362:14098:0:2,,Friesenstraße,,49.0011191,12.1175208,,,0,,,0
de:09362:14082:0:2,,Unterer kath. Friedhof,,49.0096636,12.1062505,,,0,,,0
de:09362:14082:0:3,,Unterer kath. Friedhof,,49.0095019,12.1061408,,,0,,,0
de:09362:14023:0:2,,Evang. Zentralfriedhof,,49.0100152,12.0949605,,,0,,,0
de:09362:14023:0:1,,Evang. Zentralfriedhof,,49.010195,12.09507,,,0,,,0
de:09362:11065:0:1,,Gabelsbergerstraße,,49.0169644,12.107018,,,0,,,0
de:09362:11065:0:3,,Gabelsbergerstraße,,49.0170991,12.1070866,,,0,,,0
de:09362:151:0:2,,Gallingkofen/Hochmuth,,49.0470113,12.1017341,,,0,,,0
de:09362:12014:0:1,,Gallingkofen,,49.0464977,12.1027863,,,0,,,0
de:09362:12014:0:2,,Gallingkofen,,49.0469197,12.1035261,,,0,,,0
de:09362:14035:0:2,,Geibelplatz,,48.9976263,12.08041,,,0,,,0
de:09362:14035:0:1,,Geibelplatz,,48.9981836,12.0809438,,,0,,,0
de:09362:16014:0:1,,Gerhardinger Schule,,49.02540445890032,12.09958217902239,,,0,,,0
de:09362:14022:0:2,,Dr.-Gessler-Straße,,49.0050636,12.0648133,,,0,,,0
de:09362:14022:0:3,,Dr.-Gessler-Straße,,49.0044702,12.0646486,,,0,,,0
de:09362:14022:0:4,,Dr.-Gessler-Straße,,49.0045508,12.0654825,,,0,,,0
de:09362:12016:0:1,,Gewerbepark/Donau-Arena,,49.0292419,12.1298397,,,0,,,0
de:09362:12016:0:2,,Gewerbepark/Donau-Arena,,49.0291719,12.128185,,,0,,,0
de:09362:15009:0:4,,Goethestraße,,49.0171058,12.0762583,,,0,,,0
de:09362:15009:0:3,,Goethestraße,,49.0171233,12.0771333,,,0,,,0
de:09362:163:0:1,,Goethe-Gymnasium,,49.0185263,12.0768072,,,0,,,0
de:09362:163:0:2,,Goethe-Gymnasium,,49.01848204061081,12.07694037920459,,,0,,,0
de:09362:11070:0:0,,Gutenbergplatz,,49.0184872,12.0931994,,,0,,,0
de:09362:14105:0:1,,Großprüfening,,49.0108316898544,12.03902249,,,0,,,0
de:09362:14036:0:1,,Graß Brunnstraße,,48.98817951776019,12.07807524866242,,,0,,,0
de:09362:14036:0:2,,Graß Brunnstraße,,48.9881236,12.0778258,,,0,,,0
de:09362:14061:0:1,,Graß Nord,,48.9907041,12.0782397,,,0,,,0
de:09362:14061:02,,Graß Nord,,48.9907319,12.0769144,,,0,,,0
de:09362:14047:0:0,,Graß,,48.9865755,12.0798044,,,0,,,0
de:09362:14047:0:1,,Graß,,48.9863508,12.0799408,,,0,,,0
de:09362:14047:0:2,,Graß,,48.9863371406606,12.08004608202995,,,0,,,0
de:09362:14037:0:1,,Graßer Weg,,48.9956127,12.0796141,,,0,,,0
de:09362:14037:0:0,,Graßer Weg,,48.9964038,12.0797383,,,0,,,0
de:09362:593:0:1,,Auf der Grede,,49.0263105,12.0925713,,,0,,,0
de:09362:169:0:1,,Greflingerstraße,,49.0137713,12.1170861,,,0,,,0
de:09362:169:0:2,,Greflingerstraße,,49.013808,12.1163205,,,0,,,0
de:09375:17001:0:1,,Grünthal Feuerwehr,,49.0533352,12.1620669,,,0,,,0
de:09375:17001:0:2,,Grünthal Feuerwehr,,49.0533172,12.1621491,,,0,,,0
de:09375:177:0:1,,Grünthal Irlbacher Str.,,49.0554936,12.1619508,,,0,,,0
de:09375:177:0:2,,Grünthal Irlbacher Str.,,49.0559697,12.1621988,,,0,,,0
de:09362:12017:0:1,,Grünthaler Straße,,49.0400694,12.14386,,,0,,,0
de:09362:12017:0:2,,Grünthaler Straße,,49.0398897,12.1437638,,,0,,,0
de:09362:15008:0:1,,Gumpelzhaimerstraße,,49.0228233,12.0784,,,0,,,0
de:09362:15008:0:2,,Gumpelzhaimerstraße,,49.0224991,12.079083,,,0,,,0
de:09362:14097:0:1,,Burgunderstraße,,49.00218384116739,12.11478345523048,,,0,,,0
de:09362:14097:0:2,,Burgunderstraße,,49.0020098214133,12.11552894111027,,,0,,,0
de:09362:14038:0:1,,Gutenbergstraße,,49.0103722,12.0869919,,,0,,,0
de:09362:14038:0:2,,Gutenbergstraße,,49.0097972,12.0865261,,,0,,,0
de:09362:14038:0:3,,Gutenbergstraße,,49.0100675,12.0855425,,,0,,,0
de:09362:14068:0:1,,Otto-Hahn-Straße,,48.9978719,12.0997475,,,0,,,0
de:09362:14068:0:3,,Otto-Hahn-Straße,,48.9984841,12.0989697,,,0,,,0
de:09362:14068:0:4,,Otto-Hahn-Straße,,48.9988791,12.0995855,,,0,,,0
de:09362:12020:0:2,,Harthof,,49.0376822,12.1325836,,,0,,,0
de:09362:12020:0:1,,Harthof,,49.0371883,12.1319258,,,0,,,0
de:09362:12021:0:1,,Harzstraße,,49.0410647,12.1049772,,,0,,,0
de:09362:12021:0:2,,Harzstraße,,49.0410647,12.1050319,,,0,,,0
de:09362:12022:0:0,,Haslbach,,49.0626672,12.1194319,,,0,,,0
de:09362:598:0:2,,Haslbachweg,,49.050748,12.1241502,,,0,,,0
de:09362:14039:0:1,,Franz-Hartl-Straße,,48.9940422,12.1088133,,,0,,,0
de:09362:14039:0:2,,Franz-Hartl-Straße,,48.9943113,12.1093058,,,0,,,0
de:09362:14041:0:1,,Haydnstraße,,49.00678841220869,12.10009595757355,,,0,,,0
de:09362:14041:0:2,,Haydnstraße,,49.0069988,12.0996702,,,0,,,0
de:09362:14041:0:3,,Haydnstraße,,49.0070702,12.1002172,,,0,,,0
de:09362:11090:50:1,,Hauptbahnhof (A1),,49.01420735167261,12.10058632863394,,,0,HBF,,0
de:09362:11090:50:2,,Hauptbahnhof (A2),,49.01408626,12.10087922,,,0,HBF,,0
de:09362:11090:50:3,,Hauptbahnhof (A3),,49.0140196643178,12.10059767,,,0,HBF,,0
de:09362:11090:50:4,,Hauptbahnhof (A4),,49.01391656,12.10089842,,,0,HBF,,0
de:09362:11090:50:5,,Hauptbahnhof (A5),,49.01383453759038,12.10062074955305,,,0,HBF,,0
de:09362:11090:50:6,,Hauptbahnhof (A6),,49.01372256447238,12.10091774073274,,,0,HBF,,0
de:09362:11121:2:1,,Hauptbahnhof (B1),,49.0134933073039,12.10019474947393,,,0,HBF,,0
de:09362:11121:1:6,,Hauptbahnhof (B2),,49.0133987374136,12.10020561671762,,,0,HBF,,0
de:09362:11121:1:5,,Hauptbahnhof (B4),,49.01342420409512,12.10072756763339,,,0,HBF,,0
de:09362:11121:2:3,,Hauptbahnhof (B5),,49.01345946317274,12.10112626491288,,,0,HBF,,0
de:09362:11121:1:4,,Hauptbahnhof (B6),,49.01342245,12.10116734619422,,,0,HBF,,0
de:09362:11121:3:7,,Hauptbahnhof (B8),,49.01316539991113,12.10164712772505,,,0,HBF,,0
de:09362:11090:30:3,,Hauptbahnhof (C3),,49.01391296927108,12.0998266027346,,,0,HBF,,0
de:09362:11090:40:6,,Hauptbahnhof (C6),,49.0139976427669,12.1000182899611,,,0,HBF,,0
de:09362:11090:5:15,,Hauptbahnhof West,,49.01256973715758,12.09806209720866,,,0,HBF,,0
de:09362:14031:0:1,,HBF Süd/Arcaden,,49.0098736,12.1027105,,,0,,,0
de:09362:14031:0:2,,HBF Süd/Arcaden,,49.01094018133781,12.10192034773853,,,0,,,0
de:09362:14031:0:3,,HBF Süd/Arcaden,,49.01029525789891,12.1011298580869,,,0,,,0
de:09362:14031:0:4,,HBF Süd/Arcaden,,49.0105847,12.1019875,,,0,,,0
de:09362:15019:0:1,,Heinkelstraße,,49.0179711,12.0574888,,,0,,,0
de:09362:15019:0:2,,Heinkelstraße,,49.01886705888069,12.05778004556586,,,0,,,0
de:09362:13032:0:1,,Werner-Heisenberg-Straße,,49.00429347,12.15215279,,,0,,,0
de:09362:13032:0:2,,Werner-Heisenberg-Straße,,49.00430033,12.15221826,,,0,,,0
de:09362:13024:0:1,,Peter-Henlein-Str.,,49.0091891,12.1453836,,,0,,,0
de:09362:13024:0:2,,Peter-Henlein-Str.,,49.0091894,12.1451922,,,0,,,0
de:09362:14055:0:1,,Theodor-Heuss-Platz,,48.9973816,12.0696,,,0,,,0
de:09362:14055:0:2,,Theodor-Heuss-Platz,,48.9972377,12.069545,,,0,,,0
de:09362:14042:0:1,,Hermann-Geib-Straße,,49.0101891,12.1116236,,,0,,,0
de:09362:14042:0:2,,Hermann-Geib-Straße,,49.0102247,12.1119244,,,0,,,0
de:09362:12023:0:2,,Hintere Keilbergstraße,,49.04581101135744,12.16113158966885,,,0,,,0
de:09362:230:0:2,,Höfling,,48.98132319,12.14904098,,,0,,,0
de:09362:14027:0:2,,Johann-Hösl-Straße,,48.9945155,12.1119572,,,0,,,0
de:09362:14027:0:3,,Johann-Hösl-Straße,,48.99569579843154,12.11089982077978,,,0,,,0
de:09362:14027:0:4,,Johann-Hösl-Straße,,48.995468,12.1128066,,,0,,,0
de:09362:14027:0:6,,Johann-Hösl-Straße,,48.995843,12.1152947,,,0,,,0
de:09362:14043:0:0,,Hofgartenweg,,49.0062338,12.0897047,,,0,,,0
de:09362:57:0:1,,Am Holzhof,,49.0313227,12.09909,,,0,,,0
de:09362:13020:0:1,,Hohes Kreuz,,49.0104791,12.1345613,,,0,,,0
de:09362:13020:0:2,,Hohes Kreuz,,49.0118011,12.134565,,,0,,,0
de:09362:17005:0:1,,Zur Hohen Linie,,49.0405958,12.160685,,,0,,,0
de:09362:17005:0:2,,Zur Hohen Linie,,49.0407394,12.1608497,,,0,,,0
de:09362:12027:0:2,,Hollerweg,,49.0484263,12.1615722,,,0,,,0
de:09362:12027:0:1,,Hollerweg,,49.0484355,12.1615038,,,0,,,0
de:09362:12024:0:1,,Holzgartenstraße,,49.02434074641205,12.11511728234266,,,0,,,0
de:09362:11:0:1,,Hoppestraße,,49.0134591,12.0834566,,,0,,,0
de:09362:11:0:2,,Hoppestraße,,49.0134416,12.0826638,,,0,,,0
de:09362:14095:0:1,,Hornstraße,,49.0045683,12.112308,,,0,,,0
de:09362:14095:0:2,,Hornstraße,,49.004613,12.1125405,,,0,,,0
de:09362:11080:0:0,,Haidplatz,,49.01975312460448,12.09236039262473,,,0,,,0
de:09362:13010:0:1,,Harting Friedhof,,48.9875091,12.165528,,,0,,,0
de:09362:13010:0:2,,Harting Friedhof,,48.9873988,12.1670852,,,0,,,0
de:09362:13016:0:0,,Harting Holzerstraße,,48.9869922,12.1686002,,,0,,,0
de:09362:13040:0:1,,Junkersstraße,,48.9901002,12.1514766,,,0,,,0
de:09362:13040:0:2,,Junkersstraße,,48.9900011,12.151695,,,0,,,0
de:09362:13012:0:0,,Harting Kirche,,48.98607261,12.17407273348905,,,0,,,0
de:09362:13012:0:1,,Harting Kirche,,48.9860936,12.1741308,,,0,,,0
de:09362:13012:0:2,,Harting Kirche,,48.98608693802574,12.1739498464599,,,0,,,0
de:09362:13013:0:0,,Max-Planck-Straße,,48.98940985728951,12.15624182190944,,,0,,,0
de:09362:13013:0:1,,Max-Planck-Straße,,48.98943606541558,12.15625160383993,,,0,,,0
de:09362:13013:0:2,,Max-Planck-Straße,,48.9894105,12.1561338,,,0,,,0
de:09362:13011:0:0,,Herbert-Quandt-Allee,,48.9817939064634,12.17861143596681,,,0,,,0
de:09362:13011:0:1,,Herbert-Quandt-Allee,,48.981878,12.1788566,,,0,,,0
de:09362:13011:0:2,,Herbert-Quandt-Allee,,48.9824,12.1785577,,,0,,,0
de:09362:13011:0:3,,Herbert-Quandt-Allee,,48.98144466,12.17687342,,,0,,,0
de:09362:13014:0:1,,Rathenaustraße,,48.9947608,12.1562052,,,0,,,0
de:09362:13014:0:2,,Rathenaustraße,,48.99462666413594,12.15621803995423,,,0,,,0
de:09362:13015:0:2,,Harting Wendeplatz,,48.9856327,12.1755636,,,0,,,0
de:09362:13015:0:3,,Harting Wendeplatz,,48.9854797,12.175768,,,0,,,0
de:09362:14044:0:0,,Humboldtstr. Bürgerhaus,,48.99612070163242,12.10700798153879,,,0,,,0
de:09362:14086:0:2,,Humboldtstraße,,48.9970805,12.1095988,,,0,,,0
de:09362:14086:0:3,,Humboldtstraße,,48.9969727,12.1094483,,,0,,,0
de:09362:944:0:1,,IKEA,,49.0014938,12.17618,,,0,,,0
de:09362:235:0:1,,Irl Ortsmitte,,49.00290487976645,12.16785184839807,,,0,,,0
de:09362:235:0:2,,Irl Ortsmitte,,49.00304375,12.16737216163229,,,0,,,0
de:09362:13021:0:0,,An der Irler Höhe,,49.0093597,12.13829,,,0,,,0
de:09375:839:0:1,,Irlbach Schule,,49.0649977,12.1621461,,,0,,,0
de:09375:839:0:2,,Irlbach Schule,,49.06493868,12.16223809,,,0,,,0
de:09362:13031:0:1,,Irl West,,49.00336218655618,12.16201730917083,,,0,,,0
de:09362:13031:0:2,,Irl West,,49.00333236767307,12.16221760166624,,,0,,,0
de:09362:14003:0:1,,An der Iselrinne,,49.0013152,12.11036,,,0,,,0
de:09362:14003:0:2,,An der Iselrinne,,49.0012433,12.1101547,,,0,,,0
de:09362:14056:0:1,,Krankenhaus St. Josef,,49.0061633,12.1179019,,,0,,,0
de:09362:14056:0:2,,Krankenhaus St. Josef,,49.0063338,12.1181755,,,0,,,0
de:09362:11011:0:2,,Justizgebäude (Ri. APLZ),,49.0135722,12.0884738,,,0,,,0
de:09362:11011:0:3,,Justizgebäude (Ri. Hbf),,49.0126005,12.0891419,,,0,,,0
de:09362:11011:0:4,,Justizgebäude (Li.6),,49.0136886,12.0891575,,,0,,,0
de:09362:11011:0:1,,"Justizgebäude (Li.2,7,8)",,49.01309788446582,12.08820382019006,,,0,,,0
de:09362:16002:0:2,,Kager,,49.0286077,12.0380425,,,0,,,0
de:09362:16002:0:3,,Kager,,49.0285269,12.038193,,,0,,,0
de:09362:12030:0:1,,Kalkwerk,,49.0297033,12.1352288,,,0,,,0
de:09362:12030:0:2,,Kalkwerk,,49.0297575,12.1350238,,,0,,,0
de:09362:14103:0:1,,Karthauser Straße,,49.00093116,12.08644128,,,0,,,0
de:09362:14103:0:2,,Karthauser Straße,,49.00105295,12.08709477,,,0,,,0
de:09362:13029:0:1,,Kastenmaierstraße,,49.01331699502425,12.12787690280013,,,0,,,0
de:09362:14059:0:1,,Kaulbachweg,,49.0044894,12.0772638,,,0,,,0
de:09362:14059:0:2,,Kaulbachweg,,49.004508,12.0761841,,,0,,,0
de:09362:12023:0:3,,Hintere Keilbergstraße,,49.0457744,12.1611669,,,0,,,0
de:09362:12031:0:1,,Keilberger Hauptstraße,,49.0384972,12.1565477,,,0,,,0
de:09362:12031:0:2,,Keilberger Hauptstraße,,49.03847,12.1567666,,,0,,,0
de:09362:12032:0:1,,Keilberg,,49.0383863,12.15864,,,0,,,0
de:09362:12032:0:2,,Keilberg,,49.0384402,12.1587769,,,0,,,0
de:09362:11181:0:1,,Keplerstraße,,49.0216269,12.0911955,,,0,,,0
de:09362:11181:0:2,,Keplerstraße,,49.0216716,12.0913733,,,0,,,0
de:09362:11111:0:1,,Am Königshof,,49.0160172,12.1003308,,,0,,,0
de:09362:11111:0:2,,Am Königshof,,49.0160533,12.1002763,,,0,,,0
de:09362:15015:0:0,,Killermannstraße,,49.0136419,12.0466433,,,0,,,0
de:09362:14100:0:1,,Kirchmeierstraße,,49.0097794,12.0732944,,,0,,,0
de:09362:14100:0:2,,Kirchmeierstraße,,49.0096058418107,12.0732295335403,,,0,,,0
de:09362:13026:0:1,,Klenzebrücke,,49.01273740339425,12.07277799645467,,,0,,,0
de:09362:13026:0:2,,Klenzebrücke,,49.01274164351828,12.07286617491691,,,0,,,0
de:09362:14051:1:1,,Klenzestraße (A),,49.0050419,12.0713055,,,0,,,0
de:09362:14051:1:0,,Klenzestraße (B),,49.0048888,12.071278,,,0,,,0
de:09362:14051:2:3,,Klenzestraße (C),,49.0054544,12.073165,,,0,,,0
de:09362:14051:2:6,,Klenzestraße (D),,49.0051041,12.0724811,,,0,,,0
de:09362:14052:0:0,,Klinikum (A),,48.9887172,12.0898916,,,0,,,0
de:09362:14052:0:3,,Klinikum (B),,48.9887466,12.0895572,,,0,,,0
de:09362:14096:0:1,,Klinikum West,,48.9889991,12.0858477,,,0,,,0
de:09362:15002:0:0,,An den Klostergründen,,49.0160988,12.0408355,,,0,,,0
de:09375:16004:0:0,,Kneiting,,49.0274483,12.0361547,,,0,,,0
de:09362:15011:0:1,,Hermann-Köhl-Straße,,49.0204444,12.0563977,,,0,,,0
de:09362:15011:0:2,,Hermann-Köhl-Straße,,49.0203994,12.0562611,,,0,,,0
de:09362:12033:0:1,,Kötztinger Straße,,49.0474161,12.1112011,,,0,,,0
de:09362:12033:0:2,,Kötztinger Straße,,49.047613,12.1123097,,,0,,,0
de:09375:811:0:1,,Kornweg,,48.98748008763446,12.0629617032068,,,0,,,0
de:09362:13004:0:1,,Kirchhoffstraße,,48.99117331029107,12.15736512458069,,,0,,,0
de:09362:13004:0:2,,Kirchhoffstraße,,48.99115059222692,12.15724723150942,,,0,,,0
de:09362:13027:0:1,,Kremser Straße,,49.0066641,12.1439,,,0,,,0
de:09362:13027:0:3,,Kremser Straße,,49.00688616911999,12.14416745528895,,,0,,,0
de:09362:14005:0:1,,An der Kreuzbreite,,48.9948058,12.0886727,,,0,,,0
de:09362:14005:0:2,,An der Kreuzbreite,,48.9950033,12.0889875,,,0,,,0
de:09362:12034:0:1,,Kronacher Straße,,49.062273,12.1342638,,,0,,,0
de:09362:12034:0:2,,Kronacher Straße,,49.061733,12.1348783,,,0,,,0
de:09362:14046:0:0,,Karl-Stieler-Straße (A),,48.99480541859605,12.08064441957897,,,0,,,0
de:09362:14046:0:3,,Karl-Stieler-Straße (B),,48.99483676921894,12.08105582119993,,,0,,,0
de:09362:12035:0:1,,Kulmbacher Straße,,49.0586605,12.1324752,,,0,,,0
de:09362:12035:0:2,,Kulmbacher Straße,,49.0579866,12.1319811,,,0,,,0
de:09362:14106:0:1,,Kunstpark,,49.01014298981583,12.11993040597387,,,0,,,0
de:09362:14106:0:2,,Kunstpark,,49.01018006034684,12.12001656763203,,,0,,,0
de:09362:14053:0:0,,Königswiesen,,49.0086669,12.069315,,,0,,,0
de:09362:1724:0:1,,Lotte-Branz-Straße,,48.9893083,12.1217561,,,0,,,0
de:09362:1724:0:2,,Lotte-Branz-Straße,,48.9895325,12.1221938,,,0,,,0
de:09362:12036:0:1,,Lechstraße,,49.0335397,12.1220286,,,0,,,0
de:09362:12036:0:2,,Lechstraße,,49.0330883,12.1235727,,,0,,,0
de:09362:12036:0:4,,Lechstraße,,49.03371,12.1224802,,,0,,,0
de:09362:12036:0:5,,Lechstraße,,49.03309597105396,12.12335396338453,,,0,,,0
de:09362:14060:0:1,,Leoprechting,,48.9827266,12.092135,,,0,,,0
de:09362:14060:0:2,,Leoprechting,,48.9831155,12.0894716,,,0,,,0
de:09362:15016:0:1,,Lessingstraße,,49.0164697,12.0726755,,,0,,,0
de:09362:15016:0:2,,Lessingstraße,,49.0164622,12.0706247,,,0,,,0
de:09362:12040:0:1,,Lichtenfelser Straße,,49.0626838,12.1289694,,,0,,,0
de:09362:12040:0:2,,Lichtenfelser Straße,,49.0625494,12.128545,,,0,,,0
de:09362:13022:0:1,,Liebigstraße,,49.01349670402102,12.13366454065299,,,0,,,0
de:09362:13022:0:2,,Liebigstraße,,49.013735,12.1339277,,,0,,,0
de:09362:13022:0:3,,Liebigstraße,,49.0136441,12.1348433,,,0,,,0
de:09362:602:0:2,,Lieperkingstraße,,48.9822891,12.099238,,,0,,,0
de:09362:602:0:3,,Lieperkingstraße,,48.9822988,12.0983638,,,0,,,0
de:09362:15017:2:1,,Lilienthalstraße,,49.0135377,12.0582355,,,0,,,0
de:09362:15017:2:2,,Lilienthalstraße,,49.014113,12.0586461,,,0,,,0
de:09362:15017:2:3,,Lilienthalstraße,,49.0146000464369,12.05771178199064,,,0,,,0
de:09362:15017:1:4,,Lilienthalstraße,,49.0138619,12.0569508,,,0,,,0
de:09362:12041:0:2,,Loisachstraße,,49.033893,12.1278827,,,0,,,0
de:09362:12041:0:3,,Loisachstraße,,49.0339111,12.1278005,,,0,,,0
de:09362:15018:0:1,,Margaretenau/KH Barmh. Brüder,,49.01588642477745,12.06760865391057,,,0,,,0
de:09362:15018:0:2,,Margaretenau/KH Barmh. Brüder,,49.01574431629498,12.06546480663949,,,0,,,0
de:09362:14050:0:1,,Markomannenstraße,,48.9954252,12.1194069,,,0,,,0
de:09362:14050:0:2,,Markomannenstraße,,48.9952275,12.1194611,,,0,,,0
de:09362:14050:0:4,,Markomannenstraße,,48.99484182197489,12.11983042996803,,,0,,,0
de:09362:14050:0:3,,Markomannenstraße,,48.99513397562516,12.11979120206485,,,0,,,0
de:09362:14010:0:1,,Franz-Mayer-Straße,,49.00080936,12.10638386,,,0,,,0
de:09362:14010:0:2,,Franz-Mayer-Straße,,49.0009167611568,12.10610339763961,,,0,,,0
de:09362:80:0:1,,Haus der Bayerischen Geschichte,,49.02029448440982,12.10165208987661,,,0,,,0
de:09362:80:0:2,,Haus der Bayerischen Geschichte,,49.0203144,12.1015016,,,0,,,0
de:09362:12042:0:0,,Mecklenburger Straße,,49.0460438,12.1166561,,,0,,,0
de:09362:12056:0:2,,Memeler Straße,,49.0381313,12.1249119,,,0,,,0
de:09362:12056:0:3,,Memeler Straße,,49.0373855,12.1245272,,,0,,,0
de:09362:11046:0:1,,MOBI Unterer Wöhrd,,49.02084500014666,12.11104333779044,,,0,,,0
de:09362:12008:0:1,,Mülhausener Straße,,49.04412406204609,12.12807939653114,,,0,,,0
de:09362:12008:0:2,,Mülhausener Straße,,49.04373490520143,12.1276108523764,,,0,,,0
de:09362:14064:0:1,,Von-Müller-Gymnasium,,49.0044208,12.0720291,,,0,,,0
de:09362:14064:0:2,,Von-Müller-Gymnasium,,49.0044294,12.0726441,,,0,,,0
de:09362:12029:0:3,,Nabburger Straße,,49.06030267673351,12.12506559890345,,,0,,,0
de:09362:12029:0:4,,Nabburger Straße,,49.0601591152728,12.12462687262455,,,0,,,0
de:09362:10284:0:0,,Schule Napoleonstein,,48.996468,12.1107044,,,0,,,0
de:09375:16033:0:1,,Neukareth,,49.0406244,12.0944583,,,0,,,0
de:09362:14063:0:2,,Neuprüll,,48.9923958,12.088723,,,0,,,0
de:09362:14063:0:3,,Neuprüll,,48.9926205,12.0890788,,,0,,,0
de:09362:16005:0:2,,Nürnberger Straße,,49.0327047,12.0653555,,,0,,,0
de:09362:14065:0:0,,Nibelungenstraße,,49.00462,12.0833188,,,0,,,0
de:09362:14065:0:1,,Nibelungenstraße,,49.0044594,12.0817194,,,0,,,0
de:09362:14065:0:2,,Nibelungenstraße,,49.0040358,12.0830855,,,0,,,0
de:09362:16003:0:1,,Niederwinzer,,49.0331486,12.0595713,,,0,,,0
de:09362:16003:0:2,,Niederwinzer,,49.03309733961581,12.05988559433248,,,0,,,0
de:09362:12028:0:1,,Schule St. Nikola,,49.0338455,12.103403,,,0,,,0
de:09362:12028:0:2,,Schule St. Nikola,,49.033225,12.1034975,,,0,,,0
de:09362:12039:0:0,,Nordgaustraße,,49.0327297,12.1137938,,,0,,,0
de:09362:12039:0:3,,Nordgaustraße,,49.0334936,12.1144386,,,0,,,0
de:09362:12039:0:4,,Nordgaustraße,,49.0330725,12.1127552,,,0,,,0
de:09362:11140:0:0,,Neupfarrplatz,,49.0184661,12.0968633,,,0,,,0
de:09375:315:0:2,,Neutraubling Am Braunfeld,,48.9825305,12.2028625,,,0,,,0
de:09375:320:0:2,,Neutraubling Friedhof,,48.9870519,12.2089061,,,0,,,0
de:09375:13017:0:0,,Neutraubling Friedhofweg,,48.9881294,12.2047025,,,0,,,0
de:09375:13043:0:2,,Neutraubling Haidauer Str.,,48.9856707268881,12.20843490114933,,,0,,,0
de:09375:13052:0:1,,Neutraubling Hartinger Str.,,48.9817336,12.1849216,,,0,,,0
de:09375:13052:0:2,,Neutraubling Hartinger Str.,,48.9818583,12.1857419,,,0,,,0
de:09375:13060:0:1,,Neutraubling Keplerstraße,,48.985538,12.20047,,,0,,,0
de:09375:13060:0:2,,Neutraubling Keplerstraße,,48.9860155,12.2000347,,,0,,,0
de:09375:13044:0:1,,Neutraubling Pommernstr.,,48.98069413640766,12.19323716427743,,,0,,,0
de:09375:13044:0:2,,Neutraubling Pommernstr.,,48.9806381030752,12.19323163888823,,,0,,,0
de:09375:1092:0:2,,Neutraubling Am Weiheracker,,48.9829022,12.2063341,,,0,,,0
de:09375:986:0:1,,Neutraubling Zwickauer Str.,,48.9835197,12.1924561,,,0,,,0
de:09375:986:0:2,,Neutraubling Zwickauer Str.,,48.9836363,12.1925247,,,0,,,0
de:09362:16005:0:1,,Nürnberger Straße,,49.0329475,12.0651644,,,0,,,0
de:09362:15021:0:1,,Obermaierstraße,,49.0210119,12.0709047,,,0,,,0
de:09362:15021:0:2,,Obermaierstraße,,49.0211288,12.0708366,,,0,,,0
de:09362:13023:0:0,,Am Ostbahnhof,,49.0061683,12.1449511,,,0,,,0
de:09362:14067:0:1,,Oberisling,,48.9833988,12.1053744,,,0,,,0
de:09362:14067:0:2,,Oberisling,,48.9834169,12.105238,,,0,,,0
de:09362:16006:0:1,,Oberpfalzbrücke,,49.0284333,12.0919052,,,0,,,0
de:09362:16006:0:2,,Oberpfalzbrücke,,49.0281977,12.093915,,,0,,,0
de:09362:15022:0:1,,Ostdeutsche Galerie,,49.0198347,12.0829341,,,0,,,0
de:09362:15022:0:2,,Ostdeutsche Galerie,,49.0204197,12.0823475,,,0,,,0
de:09362:13033:0:1,,Osterhofener Straße,,49.01339620456125,12.14359132526118,,,0,,,0
de:09362:13033:0:2,,Osterhofener Straße,,49.0135430668026,12.14140036523843,,,0,,,0
de:09362:12045:0:0,,Ostpreußenstraße,,49.0425905,12.1172361,,,0,,,0
de:09362:14025:0:1,,OTH Regensburg,,49.00446745477178,12.09328202714199,,,0,,,0
de:09362:14025:0:2,,OTH Regensburg,,49.0045944,12.0933372,,,0,,,0
de:09362:16008:0:1,,Oberwinzer,,49.0311672,12.0468786,,,0,,,0
de:09362:16008:0:2,,Oberwinzer,,49.0309336,12.046345,,,0,,,0
de:09362:14029:0:0,,Kirche Sankt Paul,,49.005995,12.0711019,,,0,,,0
de:09375:20002:0:1,,Pentling Ahornstraße,,48.986238,12.0582169,,,0,,,0
de:09375:20002:0:2,,Pentling Ahornstraße,,48.9868044,12.0583952,,,0,,,0
de:09375:20003:0:0,,Pentling Hölkeringer Str.,,48.9807866,12.0620494,,,0,,,0
de:09375:20003:0:2,,Pentling Hölkeringer Str.,,48.9807958,12.0621313,,,0,,,0
de:09375:20003:0:4,,Pentling Hölkeringer Str.,,48.9807238,12.0617897,,,0,,,0
de:09375:20005:0:1,,Pentling Ortsmitte,,48.9832525,12.0583227,,,0,,,0
de:09375:20005:0:2,,Pentling Ortsmitte,,48.9831447,12.05835,,,0,,,0
de:09375:20001:0:0,,Pentling,,48.9795986,12.0642063,,,0,,,0
de:09362:16010:0:1,,Pfaffensteiner Brücke,,49.0297822,12.0796416,,,0,,,0
de:09362:16010:0:2,,Pfaffensteiner Brücke,,49.0296113,12.0799011,,,0,,,0
de:09362:16034:0:1,,Pfälzer Siedlung,,49.0371522,12.0958602,,,0,,,0
de:09362:12046:0:0,,Pommernstraße,,49.0467594,12.12057,,,0,,,0
de:09362:12046:0:2,,Pommernstraße (Li.77),,49.04711,12.1205161,,,0,,,0
de:09362:12046:0:3,,Pommernstraße (Ri. Wutz),,49.04699728997183,12.12045876598016,,,0,,,0
de:09362:10:0:1,,Bahnhof Prüfening,,49.0114105,12.0495938,,,0,,,0
de:09362:13025:0:1,,Prinz-Ludwig-Straße,,49.0149283,12.1199869,,,0,,,0
de:09362:13025:0:2,,Prinz-Ludwig-Straße,,49.0155866,12.1181566,,,0,,,0
de:09362:13025:0:3,,Prinz-Ludwig-Straße,,49.01502626339351,12.11898618618966,,,0,,,0
de:09362:15023:0:0,,Prüfening,,49.012628,12.0412427,,,0,,,0
de:09362:15023:0:1,,Prüfening,,49.01292226997876,12.04334874,,,0,,,0
de:09362:14069:0:2,,Rauberstraße,,48.9840511,12.109693,,,0,,,0
de:09362:14069:0:3,,Rauberstraße,,48.9849488,12.1110886,,,0,,,0
de:09362:15025:0:1,,Rennplatz,,49.01263027291947,12.05013888180531,,,0,,,0
de:09362:15025:0:2,,Rennplatz,,49.01271499178786,12.05001909970597,,,0,,,0
de:09362:15026:0:1,,Rennweg,,49.01285722081348,12.04572210463764,,,0,,,0
de:09362:12047:0:0,,Reinhausen Brücke,,49.0311205,12.1039169,,,0,,,0
de:09362:12047:0:2,,Reinhausen Brücke,,49.0308597,12.1040394,,,0,,,0
de:09362:12047:0:3,,Reinhausen Brücke,,49.0301861,12.1030672,,,0,,,0
de:09362:12047:0:4,,Reinhausen Brücke,,49.0303569,12.1033547,,,0,,,0
de:09362:12048:0:2,,Reinhausen Kirche,,49.0306863,12.1069108,,,0,,,0
de:09362:12048:0:1,,Reinhausen Kirche,,49.0308016,12.1085247,,,0,,,0
de:09362:16042:0:1,,Bei der Rinnen,,49.0352002,12.0967866,,,0,,,0
de:09375:20006:0:1,,Pentling Rotsäulenweg,,48.9906225,12.0647944,,,0,,,0
de:09375:20006:0:2,,Pentling Rotsäulenweg,,48.9903888,12.0646575,,,0,,,0
de:09362:14107:0:2,,Runtingerstraße,,49.00896705932175,12.12168398142814,,,0,,,0
de:09362:14107:0:3,,Runtingerstraße,,49.00892259030015,12.12189932413731,,,0,,,0
de:09362:15010:0:1,,Hans-Sachs-Straße,,49.0207288,12.077385,,,0,,,0
de:09362:15010:0:2,,Hans-Sachs-Straße,,49.0208366,12.0775355,,,0,,,0
de:09362:15010:0:3,,Hans-Sachs-Straße,,49.0205308,12.0778766,,,0,,,0
de:09362:16013:0:1,,Schwandorfer Straße,,49.0291475,12.0979916,,,0,,,0
de:09362:16013:0:2,,Schwandorfer Straße,,49.0292575,12.0957494,,,0,,,0
de:09362:14071:0:1,,Safferlingstraße,,49.0080094,12.1151452,,,0,,,0
de:09362:14071:0:2,,Safferlingstraße,,49.0092788,12.1136719,,,0,,,0
de:09362:14071:0:3,,Safferlingstraße,,49.0089641297441,12.11446414721045,,,0,,,0
de:09362:14071:0:4,,Safferlingstraße,,49.00903548598502,12.11452183982068,,,0,,,0
de:09362:12055:0:1,,Sandgasse,,49.0353458,12.1231408,,,0,,,0
de:09362:12055:0:3,,Sandgasse,,49.0354361,12.1228538,,,0,,,0
de:09362:12002:0:1,,An der Schauergrube,,49.0388544,12.1516936,,,0,,,0
de:09362:12002:0:2,,An der Schauergrube,,49.038855,12.1514063,,,0,,,0
de:09362:16009:0:1,,Schelmengraben,,49.0300522,12.0915527,,,0,,,0
de:09362:16009:0:2,,Schelmengraben,,49.0299802,12.0915527,,,0,,,0
de:09362:16009:0:3,,Schelmengraben,,49.029468,12.0910866,,,0,,,0
de:09362:16009:0:4,,Schelmengraben,,49.0295391,12.0921672,,,0,,,0
de:09362:12057:0:1,,Schlesierstraße,,49.0481788,12.1218047,,,0,,,0
de:09362:12057:0:2,,Schlesierstraße,,49.0481786,12.1220508,,,0,,,0
de:09362:14089:0:0,,Schöneberger Straße,,48.9969025,12.1254505,,,0,,,0
de:09362:14089:0:1,,Schöneberger Straße,,48.9968488,12.1251636,,,0,,,0
de:09362:11160:0:1,,Stadtamhof,,49.02455546123957,12.09795364523309,,,0,,,0
de:09362:11160:0:2,,Stadtamhof,,49.02452967281637,12.09796665995021,,,0,,,0
de:09362:12075:0:1,,Siebenbürgener Str.,,49.0374091,12.1100847,,,0,,,0
de:09362:12075:0:2,,Siebenbürgener Str.,,49.0373011,12.1102894,,,0,,,0
de:09362:12075:0:3,,Siebenbürgener Str,,49.0370980359184,12.11106005410489,,,0,,,0
de:09362:12075:0:4,,Siebenbürgener Str.,,49.03705850098971,12.1109860336747,,,0,,,0
de:09362:12099:0:2,,Siemensstr./Continental,,49.005708,12.1390316,,,0,,,0
de:09362:12099:0:3,,Siemensstr./Continental,,49.00563373085537,12.13885229796459,,,0,,,0
de:09362:14076:0:1,,Simmernstraße,,49.007745,12.0766811,,,0,,,0
de:09362:14076:0:2,,Simmernstraße,,49.0078794,12.0773238,,,0,,,0
de:09362:12053:0:0,,Sallerner Berg,,49.0405286,12.1110763,,,0,,,0
de:09362:4:0:2,,Sonderburger Straße,,49.04400584,12.13170632,,,0,,,0
de:09362:4:0:1,,Sonderburger Straße,,49.04367787,12.13166783,,,0,,,0
de:09362:15040:0:1,,Sparkasse,,49.0192941,12.0548652,,,0,,,0
de:09362:15040:0:2,,Sparkasse,,49.0192044,12.0547286,,,0,,,0
de:09362:12077:0:3,,Spessartstraße,,49.0382838,12.1074058,,,0,,,0
de:09362:12077:0:4,,Spessartstraße,,49.038113,12.1076516,,,0,,,0
de:09362:11170:3:1,,Stobäusplatz,,49.0134575,12.107188,,,0,,,0
de:09362:11170:2:0,,Stobäusplatz,,49.01345971,12.10854264,,,0,,,0
de:09362:11170:1:2,,Stobäusplatz,,49.01385379220115,12.10826913547227,,,0,,,0
de:09362:20011:1,,Sportpark Ost,,49.0071888062769,12.12867622067262,,,0,,,0
de:09362:20011:2,,Sportpark Ost,,49.00716586219406,12.12859713698317,,,0,,,0
de:09362:16011:0:3,,Steinweg (A),,49.0282302,12.0981677,,,0,,,0
de:09362:16011:0:6,,Steinweg (B),,49.0279227,12.1001636,,,0,,,0
de:09362:14077:0:1,,Theodor-Storm-Straße,,49.00251735324118,12.08411785835661,,,0,,,0
de:09362:14077:0:2,,Theodor-Storm-Straße,,49.00252646019563,12.08408377022381,,,0,,,0
de:09362:12078:0:2,,Sudetendeutsche Straße,,49.0350102,12.117355,,,0,,,0
de:09362:12078:0:1,,Sudetendeutsche Straße,,49.034938,12.1176419,,,0,,,0
de:09362:900:0:1,,Sulzfeldstraße,,49.0028777,12.1766494,,,0,,,0
de:09362:14075:0:0,,Schwabenstraße,,48.99628909151799,12.12144913486963,,,0,,,0
de:09362:14075:0:1,,Schwabenstraße,,48.997753,12.1206833,,,0,,,0
de:09362:14075:0:3,,Schwabenstraße,,48.9974116,12.1202725,,,0,,,0
de:09362:14075:0:4,,Schwabenstraße,,48.9976191,12.1196855,,,0,,,0
de:09362:14075:0:5,,Schwabenstraße,,48.9976102,12.1195625,,,0,,,0
de:09362:14040:0:1,,Joh.-Schwaebl-Straße,,48.9959172,12.0677666,,,0,,,0
de:09362:14040:0:2,,Joh.-Schwaebl-Straße,,48.9961147,12.0679447,,,0,,,0
de:09362:14020:0:1,,Schwalbenneststraße,,49.0071986,12.0578863,,,0,,,0
de:09362:14020:0:2,,Schwalbenneststraße,,49.0066766,12.058405,,,0,,,0
de:09362:12070:0:1,,Fleischmannstraße,,49.0243222,12.15262,,,0,,,0
de:09362:12070:0:2,,Fleischmannstraße,,49.0245127,12.1514036,,,0,,,0
de:09362:12072:0:1,,Schwabelweis Heyden,,49.02374954730412,12.15864960822941,,,0,,,0
de:09362:12072:0:2,,Schwabelweis Heyden,,49.02390459190146,12.15788587441265,,,0,,,0
de:09362:12073:0:1,,Schwabelweiser Kirchstr.,,49.0250944,12.146483,,,0,,,0
de:09362:12073:0:2,,Schwabelweiser Kirchstr.,,49.025285,12.1452255,,,0,,,0
de:09362:12019:0:2,,Schulzentrum Isarstraße,,49.0338227,12.1177213,,,0,,,0
de:09362:12019:0:3,,Schulzentrum Isarstraße,,49.0339488,12.1174619,,,0,,,0
de:09362:15028:0:1,,Taxisstraße,,49.0185661,12.0840258,,,0,,,0
de:09362:15028:0:2,,Taxisstraße,,49.0187455,12.0847097,,,0,,,0
de:09362:14030:0:1,,TechCampus/OTH,,49.0020538,12.0990725,,,0,,,0
de:09362:14030:0:2,,TechCampus/OTH,,49.0025661,12.0993744,,,0,,,0
de:09375:18031:0:1,,Tegernheim Gh. Federl,,49.0245927,12.1712436,,,0,,,0
de:09375:18031:0:2,,Tegernheim Gh. Federl,,49.02470786482724,12.17262313459771,,,0,,,0
de:09375:1078:0:1,,Tegernheim M.-Luther-Kirche,,49.02384367674505,12.16434956030957,,,0,,,0
de:09375:1078:0:2,,Tegernheim M.-Luther-Kirche,,49.0237830410778,12.16440389078885,,,0,,,0
de:09375:18030:0:1,,Tegernheim Weinbergstraße,,49.0250152,12.1771658,,,0,,,0
de:09375:18030:0:2,,Tegernheim Weinbergstraße,,49.0248886,12.1777258,,,0,,,0
de:09362:14072:0:0,,Theresienkirche,,49.00896,12.08755,,,0,,,0
de:09362:11180:0:1,,Thundorferstraße,,49.020703,12.0991236,,,0,,,0
de:09362:11180:0:2,,Thundorferstraße,,49.0208025,12.0987547,,,0,,,0
de:09362:14078:0:1,,Tulpenweg,,48.9992911,12.1111891,,,0,,,0
de:09362:14078:0:2,,Tulpenweg,,48.9994352,12.1109708,,,0,,,0
de:09362:14026:0:1,,Fernsehsender Ziegetsdorf,,48.9930961,12.077943,,,0,,,0
de:09362:14026:0:2,,Fernsehsender Ziegetsdorf,,48.9930244,12.0777241,,,0,,,0
de:09362:14080:0:0,,Universität (C),,48.99876,12.0916452,,,0,,,0
de:09362:14080:0:2,,Universität (B),,48.9984722,12.0917952,,,0,,,0
de:09362:14080:0:3,,Universität (A),,48.9984808,12.0922188,,,0,,,0
de:09362:14080:0:4,,Universität (D),,48.9988136,12.0920416,,,0,,,0
de:09362:14080:0:5,,Universität (E),,48.9987325,12.0923422,,,0,,,0
de:09362:12080:0:3,,Vilsstraße-Gewerbepark,,49.02907543343898,12.12439678719985,,,0,,,0
de:09362:12080:0:4,,Vilsstraße-Gewerbepark,,49.0296802,12.1238105,,,0,,,0
de:09362:12080:0:5,,Vilsstraße-Gewerbepark,,49.0291511,12.1225647,,,0,,,0
de:09362:14092:0:1,,Vitusstraße,,48.9949172,12.0841633,,,0,,,0
de:09362:14092:0:2,,Vitusstraße,,48.994863,12.0841908,,,0,,,0
de:09362:12081:2:0,,Weichs/DEZ (A),,49.02568091500468,12.11401431601176,,,0,,,0
de:09362:12081:2:1,,Weichs/DEZ (B),,49.025563,12.1140236,,,0,,,0
de:09362:12081:1:3,,Weichs/DEZ (D),,49.0247183,12.1135569,,,0,,,0
de:09362:12081:2:5,,Weichs/DEZ (E),,49.02509544536236,12.11437428183799,,,0,,,0
de:09362:12001:0:1,,An den Weichser Breiten,,49.0253972,12.1180022,,,0,,,0
de:09362:12001:0:2,,An den Weichser Breiten,,49.02424092088193,12.11775185860948,,,0,,,0
de:09362:12085:0:0,,Weichser Weg,,49.0291922,12.1175052,,,0,,,0
de:09362:12085:0:1,,Weichser Weg,,49.02908046513359,12.11966434628245,,,0,,,0
de:09362:12085:0:2,,Weichser Weg,,49.0281302,12.1183094,,,0,,,0
de:09362:15032:0:2,,Weinweg,,49.02767,12.063913,,,0,,,0
de:09362:15032:0:3,,Weinweg,,49.0274986,12.0649111,,,0,,,0
de:09362:11190:1:3,,Weißenburgstraße (A),,49.0165733537909,12.11176259831263,,,0,,,0
de:09362:11190:1:4,,Weißenburgstraße (B),,49.0165105,12.1115283,,,0,,,0
de:09362:11190:2:5,,Weißenburgstraße (D),,49.0174825,12.1107922,,,0,,,0
de:09362:11190:2:6,,Weißenburgstraße (C),,49.0172936,12.1106552,,,0,,,0
de:09362:14091:0:2,,Otto-Wels-Straße,,48.9981708,12.0732636,,,0,,,0
de:09362:14091:0:3,,Otto-Wels-Straße,,48.9984219,12.0742341,,,0,,,0
de:09362:14091:0:1,,Otto-Wels-Straße,,48.9987816,12.0738522,,,0,,,0
de:09362:15033:0:0,,Wernerwerkstraße (Schleife),,49.0220091,12.0564544,,,0,,,0
de:09362:15033:0:2,,Wernerwerkstraße (Linie 6),,49.02193548715986,12.05675693553398,,,0,,,0
de:09362:15033:0:3,,Wernerwerkstraße,,49.02197982553499,12.05669614005927,,,0,,,0
de:09362:15033:0:5,,Wernerwerkstraße,,49.0219819,12.0564544,,,0,,,0
de:09362:15034:0:2,,Westbad,,49.0246344,12.0571958,,,0,,,0
de:09362:15034:0:3,,Westbad,,49.0243916,12.0569902,,,0,,,0
de:09362:15035:0:1,,Westheim,,49.0277266,12.059223,,,0,,,0
de:09362:15035:0:2,,Westheim,,49.0277897,12.0588675,,,0,,,0
de:09362:12086:0:1,,Wetterstation,,49.0422719,12.1026272,,,0,,,0
de:09362:12086:0:2,,Wetterstation,,49.0427036,12.1024638,,,0,,,0
de:09362:12025:0:1,,Im Reichen Winkel,,49.0384119,12.1144636,,,0,,,0
de:09362:12025:0:2,,Im Reichen Winkel,,49.038565,12.1144091,,,0,,,0
de:09362:11049:0:3,,Wöhrdstraße,,49.02147062533869,12.10964564296997,,,0,,,0
de:09362:11049:0:4,,Wöhrdstraße,,49.0215213,12.1089966,,,0,,,0
de:09362:14083:0:0,,Wolfgangskirche,,49.0059872,12.0830477,,,0,,,0
de:09362:14083:0:1,,Wolfgangskirche,,49.0059872,12.0830477,,,0,,,0
de:09362:14090:0:1,,Wolfgangschule Nord,,49.0008611,12.0836133,,,0,,,0
de:09362:14090:0:2,,Wolfgangschule Nord,,49.0013561,12.0831494,,,0,,,0
de:09362:530:0:1,,Wolframstraße,,48.99201533850626,12.06986041411439,,,0,,,0
de:09362:530:0:2,,Wolframstraße,,48.99258140233938,12.06980503320502,,,0,,,0
de:09362:14084:0:2,,Wolfgangschule Süd,,49.00042999007051,12.0825227556116,,,0,,,0
de:09362:14084:0:3,,Wolfgangschule Süd,,49.00043928455543,12.082485193534,,,0,,,0
de:09362:16012:0:1,,Würzburger Straße,,49.0286252,12.0879263,,,0,,,0
de:09362:16012:0:2,,Würzburger Straße,,49.0283,12.090018,,,0,,,0
de:09362:12087:0:0,,Wutzlhofen (Ausstieg),,49.04759431748691,12.1293136625614,,,0,,,0
de:09362:12087:0:1,,Wutzlhofen,,49.04762940720497,12.1291611604921,,,0,,,0
de:09362:14085:0:2,,Zeißstraße,,49.0034161,12.1224055,,,0,,,0
de:09362:14085:0:3,,Zeißstraße,,49.0043883,12.1213144,,,0,,,0
de:09362:14087:0:3,,Ziegetsdorf,,48.99301683527886,12.06651588794548,,,0,,,0
de:09362:14087:0:4,,Ziegetsdorf,,48.9921775,12.06604,,,0,,,0
de:09362:546:0:1,,Ziegetsdorfer Höhe,,48.9890469,12.0681947,,,0,,,0
de:09362:546:0:2,,Ziegetsdorfer Höhe,,48.9890466,12.0686863,,,0,,,0
de:09362:546:0:3,,Ziegetsdorfer Höhe,,48.988768,12.0686725,,,0,,,0
de:09362:14088:0:1,,Ziegetsdorfer Straße,,48.9951390498905,12.07024816826707,,,0,,,0
de:09362:14088:0:2,,Ziegetsdorfer Straße,,48.9950826771074,12.0700678297783,,,0,,,0
de:09362:13030:0:1,,Zuckerfabrikstraße,,49.01416817812807,12.1242662634497,,,0,,,0
de:09362:13030:0:2,,Zuckerfabrikstraße,,49.01469575165169,12.12316128494949,,,0,,,0
HBF,,Hauptbahnhof,,49.01373006066681,12.100375280472516,,,1,,,0
